$GPGGA,071322.00,3206.35960,N,03512.07847,E,1,08,0.00,637.5,M,,,,*02
$GPRMC,071322.00,A,3206.35960,N,03512.07847,E,0.000,96.5,300316,,,A*61
$GPGGA,071324.00,3206.35876,N,03512.07973,E,1,08,0.00,637.4,M,,,,*05
$GPRMC,071324.00,A,3206.35876,N,03512.07973,E,2.544,127.7,300316,,,A*59
$GPGGA,071325.00,3206.35836,N,03512.08035,E,1,08,0.00,637.4,M,,,,*04
$GPRMC,071325.00,A,3206.35836,N,03512.08035,E,2.481,129.2,300316,,,A*5B
$GPGGA,071327.00,3206.35741,N,03512.08156,E,1,08,0.00,637.3,M,,,,*0A
$GPRMC,071327.00,A,3206.35741,N,03512.08156,E,2.493,94.8,300316,,,A*6C
$GPGGA,071329.00,3206.35658,N,03512.08293,E,1,08,0.00,637.6,M,,,,*02
$GPRMC,071329.00,A,3206.35658,N,03512.08293,E,2.516,98.0,300316,,,A*69
$GPGGA,071330.00,3206.35623,N,03512.08359,E,1,08,0.00,637.8,M,,,,*0F
$GPRMC,071330.00,A,3206.35623,N,03512.08359,E,2.492,94.5,300316,,,A*6E
$GPGGA,071332.00,3206.35557,N,03512.08498,E,1,08,0.00,638.3,M,,,,*03
$GPRMC,071332.00,A,3206.35557,N,03512.08498,E,2.478,102.5,300316,,,A*5C
$GPGGA,071333.00,3206.35516,N,03512.08565,E,1,08,0.00,638.0,M,,,,*07
$GPRMC,071333.00,A,3206.35516,N,03512.08565,E,2.480,101.4,300316,,,A*5E
$GPGGA,071335.00,3206.35444,N,03512.08707,E,1,08,0.00,637.9,M,,,,*07
$GPRMC,071335.00,A,3206.35444,N,03512.08707,E,2.486,100.4,300316,,,A*5F
$GPGGA,071337.00,3206.35384,N,03512.08846,E,1,08,0.00,637.8,M,,,,*05
$GPRMC,071337.00,A,3206.35384,N,03512.08846,E,2.469,87.6,300316,,,A*61
$GPGGA,071339.00,3206.35339,N,03512.08989,E,1,08,0.00,638.3,M,,,,*0B
$GPRMC,071339.00,A,3206.35339,N,03512.08989,E,2.443,87.6,300316,,,A*63
$GPGGA,071341.00,3206.35315,N,03512.09140,E,1,08,0.00,638.6,M,,,,*03
$GPRMC,071341.00,A,3206.35315,N,03512.09140,E,2.419,147.5,300316,,,A*5F
$GPGGA,071342.00,3206.35309,N,03512.09213,E,1,08,0.00,638.4,M,,,,*0A
$GPRMC,071342.00,A,3206.35309,N,03512.09213,E,2.399,140.3,300316,,,A*5A
$GPGGA,071344.00,3206.35305,N,03512.09362,E,1,08,0.00,638.5,M,,,,*06
$GPRMC,071344.00,A,3206.35305,N,03512.09362,E,2.366,120.7,300316,,,A*55
$GPGGA,071346.00,3206.35309,N,03512.09514,E,1,08,0.00,639.1,M,,,,*0A
$GPRMC,071346.00,A,3206.35309,N,03512.09514,E,2.342,128.6,300316,,,A*53
$GPGGA,071347.00,3206.35311,N,03512.09590,E,1,08,0.00,639.1,M,,,,*0E
$GPRMC,071347.00,A,3206.35311,N,03512.09590,E,2.331,121.4,300316,,,A*58
$GPGGA,071348.00,3206.35306,N,03512.09663,E,1,08,0.00,638.8,M,,,,*00
$GPRMC,071348.00,A,3206.35306,N,03512.09663,E,2.323,98.1,300316,,,A*6B
$GPGGA,071350.00,3206.35297,N,03512.09800,E,1,08,0.00,638.7,M,,,,*04
$GPRMC,071350.00,A,3206.35297,N,03512.09800,E,2.298,30.5,300316,,,A*67
$GPGGA,071352.00,3206.35309,N,03512.09944,E,1,08,0.00,638.5,M,,,,*03
$GPRMC,071352.00,A,3206.35309,N,03512.09944,E,2.277,52.8,300316,,,A*6A
$GPGGA,071354.00,3206.35266,N,03512.10097,E,1,08,0.00,639.8,M,,,,*0E
$GPRMC,071354.00,A,3206.35266,N,03512.10097,E,2.288,131.7,300316,,,A*50
$GPGGA,071356.00,3206.35131,N,03512.10180,E,1,08,0.00,640.5,M,,,,*09
$GPRMC,071356.00,A,3206.35131,N,03512.10180,E,2.276,136.3,300316,,,A*56
$GPGGA,071357.00,3206.35066,N,03512.10216,E,1,08,0.00,640.5,M,,,,*07
$GPRMC,071357.00,A,3206.35066,N,03512.10216,E,2.265,128.4,300316,,,A*52
$GPGGA,071359.00,3206.34949,N,03512.10304,E,1,08,0.00,641.3,M,,,,*09
$GPRMC,071359.00,A,3206.34949,N,03512.10304,E,2.258,128.1,300316,,,A*50
$GPGGA,071401.00,3206.34847,N,03512.10430,E,1,08,0.00,641.2,M,,,,*0D
$GPRMC,071401.00,A,3206.34847,N,03512.10430,E,2.273,116.5,300316,,,A*55
$GPGGA,071403.00,3206.34764,N,03512.10588,E,1,08,0.00,641.8,M,,,,*09
$GPRMC,071403.00,A,3206.34764,N,03512.10588,E,2.299,57.0,300316,,,A*6E
$GPGGA,071404.00,3206.34756,N,03512.10673,E,1,08,0.00,642.3,M,,,,*00
$GPRMC,071404.00,A,3206.34756,N,03512.10673,E,2.302,51.7,300316,,,A*6D
$GPGGA,071405.00,3206.34787,N,03512.10750,E,1,08,0.00,641.9,M,,,,*04
$GPRMC,071405.00,A,3206.34787,N,03512.10750,E,2.286,45.8,300316,,,A*67
$GPGGA,071407.00,3206.34902,N,03512.10880,E,1,08,0.00,642.0,M,,,,*0D
$GPRMC,071407.00,A,3206.34902,N,03512.10880,E,2.228,50.7,300316,,,A*6B
$GPGGA,071409.00,3206.35003,N,03512.11027,E,1,08,0.00,642.3,M,,,,*0D
$GPRMC,071409.00,A,3206.35003,N,03512.11027,E,2.194,46.7,300316,,,A*6B
$GPGGA,071411.00,3206.35095,N,03512.11189,E,1,08,0.00,642.3,M,,,,*0E
$GPRMC,071411.00,A,3206.35095,N,03512.11189,E,2.180,55.1,300316,,,A*69
$GPGGA,071412.00,3206.35132,N,03512.11277,E,1,08,0.00,642.5,M,,,,*05
$GPRMC,071412.00,A,3206.35132,N,03512.11277,E,2.180,51.3,300316,,,A*62
$GPGGA,071413.00,3206.35163,N,03512.11365,E,1,08,0.00,642.8,M,,,,*0F
$GPRMC,071413.00,A,3206.35163,N,03512.11365,E,2.182,53.4,300316,,,A*62
$GPGGA,071415.00,3206.35229,N,03512.11527,E,1,08,0.00,642.9,M,,,,*05
$GPRMC,071415.00,A,3206.35229,N,03512.11527,E,2.179,44.0,300316,,,A*6F
$GPGGA,071416.00,3206.35269,N,03512.11605,E,1,08,0.00,643.0,M,,,,*09
$GPRMC,071416.00,A,3206.35269,N,03512.11605,E,2.175,47.0,300316,,,A*64
$GPGGA,071417.00,3206.35312,N,03512.11680,E,1,08,0.00,642.9,M,,,,*00
$GPRMC,071417.00,A,3206.35312,N,03512.11680,E,2.171,46.9,300316,,,A*69
$GPGGA,071419.00,3206.35395,N,03512.11833,E,1,08,0.00,643.2,M,,,,*0D
$GPRMC,071419.00,A,3206.35395,N,03512.11833,E,2.166,51.8,300316,,,A*6F
$GPGGA,071421.00,3206.35461,N,03512.11992,E,1,08,0.00,643.1,M,,,,*03
$GPRMC,071421.00,A,3206.35461,N,03512.11992,E,2.168,50.0,300316,,,A*65
$GPGGA,071423.00,3206.35536,N,03512.12146,E,1,08,0.00,644.1,M,,,,*07
$GPRMC,071423.00,A,3206.35536,N,03512.12146,E,2.167,33.0,300316,,,A*6C
$GPGGA,071425.00,3206.35627,N,03512.12296,E,1,08,0.00,644.3,M,,,,*0E
$GPRMC,071425.00,A,3206.35627,N,03512.12296,E,2.166,40.8,300316,,,A*6A
$GPGGA,071426.00,3206.35671,N,03512.12374,E,1,08,0.00,644.3,M,,,,*03
$GPRMC,071426.00,A,3206.35671,N,03512.12374,E,2.167,43.8,300316,,,A*65
$GPGGA,071428.00,3206.35762,N,03512.12530,E,1,08,0.00,644.5,M,,,,*0E
$GPRMC,071428.00,A,3206.35762,N,03512.12530,E,2.171,42.1,300316,,,A*61
$GPGGA,071429.00,3206.35803,N,03512.12607,E,1,08,0.00,644.5,M,,,,*00
$GPRMC,071429.00,A,3206.35803,N,03512.12607,E,2.171,52.7,300316,,,A*68
$GPGGA,071431.00,3206.35876,N,03512.12769,E,1,08,0.00,644.4,M,,,,*03
$GPRMC,071431.00,A,3206.35876,N,03512.12769,E,2.180,51.9,300316,,,A*69
$GPGGA,071432.00,3206.35914,N,03512.12844,E,1,08,0.00,643.6,M,,,,*00
$GPRMC,071432.00,A,3206.35914,N,03512.12844,E,2.181,47.6,300316,,,A*66
$GPGGA,071434.00,3206.35992,N,03512.12989,E,1,08,0.00,643.7,M,,,,*09
$GPRMC,071434.00,A,3206.35992,N,03512.12989,E,2.182,63.2,300316,,,A*6F
$GPGGA,071435.00,3206.36031,N,03512.13058,E,1,08,0.00,643.6,M,,,,*0E
$GPRMC,071435.00,A,3206.36031,N,03512.13058,E,2.181,46.7,300316,,,A*68
$GPGGA,071437.00,3206.36117,N,03512.13191,E,1,08,0.00,643.4,M,,,,*0F
$GPRMC,071437.00,A,3206.36117,N,03512.13191,E,2.178,49.8,300316,,,A*6D
$GPGGA,071438.00,3206.36166,N,03512.13261,E,1,08,0.00,643.4,M,,,,*0A
$GPRMC,071438.00,A,3206.36166,N,03512.13261,E,2.178,42.5,300316,,,A*6E
$GPGGA,071440.00,3206.36252,N,03512.13413,E,1,08,0.00,643.8,M,,,,*0E
$GPRMC,071440.00,A,3206.36252,N,03512.13413,E,2.183,55.7,300316,,,A*66
$GPGGA,071441.00,3206.36292,N,03512.13495,E,1,08,0.00,643.5,M,,,,*00
$GPRMC,071441.00,A,3206.36292,N,03512.13495,E,2.187,54.9,300316,,,A*6E
$GPGGA,071442.00,3206.36334,N,03512.13573,E,1,08,0.00,643.8,M,,,,*0A
$GPRMC,071442.00,A,3206.36334,N,03512.13573,E,2.185,63.4,300316,,,A*62
$GPGGA,071444.00,3206.36416,N,03512.13738,E,1,08,0.00,643.6,M,,,,*08
$GPRMC,071444.00,A,3206.36416,N,03512.13738,E,2.202,67.3,300316,,,A*61
$GPGGA,071445.00,3206.36446,N,03512.13835,E,1,08,0.00,644.3,M,,,,*0C
$GPRMC,071445.00,A,3206.36446,N,03512.13835,E,2.212,75.6,300316,,,A*60
$GPGGA,071447.00,3206.36500,N,03512.14024,E,1,08,0.00,645.8,M,,,,*08
$GPRMC,071447.00,A,3206.36500,N,03512.14024,E,2.231,71.3,300316,,,A*6E
$GPGGA,071448.00,3206.36481,N,03512.14147,E,1,08,0.00,644.3,M,,,,*01
$GPRMC,071448.00,A,3206.36481,N,03512.14147,E,2.247,72.0,300316,,,A*6C
$GPGGA,071449.00,3206.36472,N,03512.14252,E,1,08,0.00,644.5,M,,,,*0D
$GPRMC,071449.00,A,3206.36472,N,03512.14252,E,2.258,92.4,300316,,,A*62
$GPGGA,071451.00,3206.36472,N,03512.14440,E,1,08,0.00,643.5,M,,,,*06
$GPRMC,071451.00,A,3206.36472,N,03512.14440,E,2.271,92.9,300316,,,A*68
$GPGGA,071453.00,3206.36467,N,03512.14611,E,1,08,0.00,643.2,M,,,,*01
$GPRMC,071453.00,A,3206.36467,N,03512.14611,E,2.278,79.5,300316,,,A*68
$GPGGA,071454.00,3206.36472,N,03512.14706,E,1,08,0.00,643.2,M,,,,*05
$GPRMC,071454.00,A,3206.36472,N,03512.14706,E,2.285,72.1,300316,,,A*61
$GPGGA,071456.00,3206.36510,N,03512.14951,E,1,08,0.00,644.0,M,,,,*0B
$GPRMC,071456.00,A,3206.36510,N,03512.14951,E,2.317,35.3,300316,,,A*61
$GPGGA,071458.00,3206.36575,N,03512.15229,E,1,08,0.00,643.8,M,,,,*0C
$GPRMC,071458.00,A,3206.36575,N,03512.15229,E,2.359,22.0,300316,,,A*66
$GPGGA,071459.00,3206.36619,N,03512.15395,E,1,08,0.00,643.2,M,,,,*08
$GPRMC,071459.00,A,3206.36619,N,03512.15395,E,2.388,24.0,300316,,,A*62
$GPGGA,071500.00,3206.36674,N,03512.15601,E,1,08,0.00,643.1,M,,,,*05
$GPRMC,071500.00,A,3206.36674,N,03512.15601,E,2.429,22.0,300316,,,A*66
$GPGGA,071502.00,3206.36742,N,03512.16009,E,1,08,0.00,645.1,M,,,,*08
$GPRMC,071502.00,A,3206.36742,N,03512.16009,E,2.508,14.8,300316,,,A*62
$GPGGA,071504.00,3206.36803,N,03512.16342,E,1,08,0.00,644.1,M,,,,*09
$GPRMC,071504.00,A,3206.36803,N,03512.16342,E,2.560,5.5,300316,,,A*51
$GPGGA,071505.00,3206.36841,N,03512.16465,E,1,08,0.00,644.0,M,,,,*0D
$GPRMC,071505.00,A,3206.36841,N,03512.16465,E,2.573,359.1,300316,,,A*58
$GPGGA,071507.00,3206.36881,N,03512.16630,E,1,08,0.00,644.6,M,,,,*07
$GPRMC,071507.00,A,3206.36881,N,03512.16630,E,2.573,337.5,300316,,,A*58
$GPGGA,071508.00,3206.36879,N,03512.16679,E,1,08,0.00,645.2,M,,,,*07
$GPRMC,071508.00,A,3206.36879,N,03512.16679,E,2.563,235.3,300316,,,A*59
$GPGGA,071509.00,3206.36867,N,03512.16697,E,1,08,0.00,646.7,M,,,,*0F
$GPRMC,071509.00,A,3206.36867,N,03512.16697,E,2.543,344.3,300316,,,A*52
$GPGGA,071511.00,3206.36830,N,03512.16672,E,1,08,0.00,647.5,M,,,,*0C
$GPRMC,071511.00,A,3206.36830,N,03512.16672,E,2.488,113.1,300316,,,A*56
$GPGGA,071513.00,3206.36803,N,03512.16682,E,1,08,0.00,646.9,M,,,,*0C
$GPRMC,071513.00,A,3206.36803,N,03512.16682,E,2.445,110.4,300316,,,A*5C
$GPGGA,071514.00,3206.36796,N,03512.16718,E,1,08,0.00,646.4,M,,,,*07
$GPRMC,071514.00,A,3206.36796,N,03512.16718,E,2.433,105.8,300316,,,A*53
$GPGGA,071515.00,3206.36796,N,03512.16767,E,1,08,0.00,647.2,M,,,,*09
$GPRMC,071515.00,A,3206.36796,N,03512.16767,E,2.424,115.2,300316,,,A*57
$GPGGA,071517.00,3206.36794,N,03512.16879,E,1,08,0.00,645.3,M,,,,*0A
$GPRMC,071517.00,A,3206.36794,N,03512.16879,E,2.412,112.7,300316,,,A*50
$GPGGA,071519.00,3206.36812,N,03512.17005,E,1,08,0.00,646.1,M,,,,*06
$GPRMC,071519.00,A,3206.36812,N,03512.17005,E,2.404,112.8,300316,,,A*55
$GPGGA,071521.00,3206.36828,N,03512.17167,E,1,08,0.00,646.1,M,,,,*01
$GPRMC,071521.00,A,3206.36828,N,03512.17167,E,2.406,95.1,300316,,,A*67
$GPGGA,071522.00,3206.36841,N,03512.17263,E,1,08,0.00,645.4,M,,,,*0C
$GPRMC,071522.00,A,3206.36841,N,03512.17263,E,2.410,87.1,300316,,,A*68
$GPGGA,071523.00,3206.36850,N,03512.17354,E,1,08,0.00,645.0,M,,,,*0C
$GPRMC,071523.00,A,3206.36850,N,03512.17354,E,2.414,90.9,300316,,,A*66
$GPGGA,071525.00,3206.36867,N,03512.17534,E,1,08,0.00,645.9,M,,,,*07
$GPRMC,071525.00,A,3206.36867,N,03512.17534,E,2.420,106.5,300316,,,A*51
$GPGGA,071526.00,3206.36881,N,03512.17636,E,1,08,0.00,646.6,M,,,,*01
$GPRMC,071526.00,A,3206.36881,N,03512.17636,E,2.425,85.9,300316,,,A*68
$GPGGA,071528.00,3206.36913,N,03512.17834,E,1,08,0.00,646.0,M,,,,*0F
$GPRMC,071528.00,A,3206.36913,N,03512.17834,E,2.436,87.9,300316,,,A*60
$GPGGA,071529.00,3206.36923,N,03512.17931,E,1,08,0.00,645.2,M,,,,*08
$GPRMC,071529.00,A,3206.36923,N,03512.17931,E,2.439,90.4,300316,,,A*62
$GPGGA,071531.00,3206.36936,N,03512.18119,E,1,08,0.00,644.7,M,,,,*0C
$GPRMC,071531.00,A,3206.36936,N,03512.18119,E,2.446,91.9,300316,,,A*66
$GPGGA,071533.00,3206.36952,N,03512.18301,E,1,08,0.00,643.4,M,,,,*03
$GPRMC,071533.00,A,3206.36952,N,03512.18301,E,2.451,87.8,300316,,,A*6D
$GPGGA,071535.00,3206.36958,N,03512.18481,E,1,08,0.00,642.9,M,,,,*0C
$GPRMC,071535.00,A,3206.36958,N,03512.18481,E,2.456,86.9,300316,,,A*69
$GPGGA,071536.00,3206.36969,N,03512.18574,E,1,08,0.00,642.3,M,,,,*0C
$GPRMC,071536.00,A,3206.36969,N,03512.18574,E,2.459,93.3,300316,,,A*62
$GPGGA,071537.00,3206.36982,N,03512.18667,E,1,08,0.00,642.2,M,,,,*08
$GPRMC,071537.00,A,3206.36982,N,03512.18667,E,2.462,90.2,300316,,,A*6D
$GPGGA,071538.00,3206.37000,N,03512.18763,E,1,08,0.00,641.5,M,,,,*04
$GPRMC,071538.00,A,3206.37000,N,03512.18763,E,2.466,77.4,300316,,,A*6E
$GPGGA,071539.00,3206.37012,N,03512.18854,E,1,08,0.00,642.2,M,,,,*09
$GPRMC,071539.00,A,3206.37012,N,03512.18854,E,2.468,85.2,300316,,,A*62
$GPGGA,071541.00,3206.37048,N,03512.19031,E,1,08,0.00,642.7,M,,,,*06
$GPRMC,071541.00,A,3206.37048,N,03512.19031,E,2.472,89.3,300316,,,A*6E
$GPGGA,071543.00,3206.37093,N,03512.19202,E,1,08,0.00,643.5,M,,,,*03
$GPRMC,071543.00,A,3206.37093,N,03512.19202,E,2.475,94.8,300316,,,A*68
$GPGGA,071545.00,3206.37121,N,03512.19371,E,1,08,0.00,642.6,M,,,,*0A
$GPRMC,071545.00,A,3206.37121,N,03512.19371,E,2.477,97.4,300316,,,A*6E
$GPGGA,071546.00,3206.37122,N,03512.19456,E,1,08,0.00,642.1,M,,,,*0F
$GPRMC,071546.00,A,3206.37122,N,03512.19456,E,2.478,91.7,300316,,,A*66
$GPGGA,071548.00,3206.37129,N,03512.19625,E,1,08,0.00,640.6,M,,,,*09
$GPRMC,071548.00,A,3206.37129,N,03512.19625,E,2.479,92.6,300316,,,A*66
$GPGGA,071550.00,3206.37132,N,03512.19807,E,1,08,0.00,639.8,M,,,,*04
$GPRMC,071550.00,A,3206.37132,N,03512.19807,E,2.484,85.8,300316,,,A*61
$GPGGA,071551.00,3206.37139,N,03512.19917,E,1,08,0.00,639.8,M,,,,*0E
$GPRMC,071551.00,A,3206.37139,N,03512.19917,E,2.489,84.9,300316,,,A*66
$GPGGA,071553.00,3206.37154,N,03512.20149,E,1,08,0.00,642.9,M,,,,*03
$GPRMC,071553.00,A,3206.37154,N,03512.20149,E,2.503,82.1,300316,,,A*6B
$GPGGA,071554.00,3206.37157,N,03512.20258,E,1,08,0.00,643.3,M,,,,*0F
$GPRMC,071554.00,A,3206.37157,N,03512.20258,E,2.509,80.2,300316,,,A*67
$GPGGA,071556.00,3206.37164,N,03512.20464,E,1,08,0.00,642.4,M,,,,*02
$GPRMC,071556.00,A,3206.37164,N,03512.20464,E,2.517,85.1,300316,,,A*65
$GPGGA,071557.00,3206.37158,N,03512.20566,E,1,08,0.00,641.5,M,,,,*0D
$GPRMC,071557.00,A,3206.37158,N,03512.20566,E,2.521,85.3,300316,,,A*6F
$GPGGA,071558.00,3206.37154,N,03512.20669,E,1,08,0.00,640.0,M,,,,*06
$GPRMC,071558.00,A,3206.37154,N,03512.20669,E,2.524,89.5,300316,,,A*6F
$GPGGA,071600.00,3206.37151,N,03512.20864,E,1,08,0.00,640.7,M,,,,*09
$GPRMC,071600.00,A,3206.37151,N,03512.20864,E,2.530,102.0,300316,,,A*55
$GPGGA,071602.00,3206.37127,N,03512.21104,E,1,08,0.00,641.7,M,,,,*05
$GPRMC,071602.00,A,3206.37127,N,03512.21104,E,2.543,90.8,300316,,,A*6E
$GPGGA,071604.00,3206.37130,N,03512.21306,E,1,08,0.00,641.8,M,,,,*0A
$GPRMC,071604.00,A,3206.37130,N,03512.21306,E,2.550,86.1,300316,,,A*62
$GPGGA,071605.00,3206.37125,N,03512.21431,E,1,08,0.00,641.2,M,,,,*06
$GPRMC,071605.00,A,3206.37125,N,03512.21431,E,2.557,82.0,300316,,,A*66
$GPGGA,071606.00,3206.37121,N,03512.21545,E,1,08,0.00,641.2,M,,,,*03
$GPRMC,071606.00,A,3206.37121,N,03512.21545,E,2.562,100.7,300316,,,A*59
$GPGGA,071608.00,3206.37113,N,03512.21769,E,1,08,0.00,642.4,M,,,,*05
$GPRMC,071608.00,A,3206.37113,N,03512.21769,E,2.572,95.6,300316,,,A*67
$GPGGA,071610.00,3206.37121,N,03512.21988,E,1,08,0.00,641.7,M,,,,*0C
$GPRMC,071610.00,A,3206.37121,N,03512.21988,E,2.581,85.8,300316,,,A*6D
$GPGGA,071611.00,3206.37130,N,03512.22099,E,1,08,0.00,643.0,M,,,,*02
$GPRMC,071611.00,A,3206.37130,N,03512.22099,E,2.586,80.1,300316,,,A*6D
$GPGGA,071612.00,3206.37132,N,03512.22196,E,1,08,0.00,643.6,M,,,,*0B
$GPRMC,071612.00,A,3206.37132,N,03512.22196,E,2.588,88.9,300316,,,A*6C
$GPGGA,071614.00,3206.37135,N,03512.22376,E,1,08,0.00,641.7,M,,,,*05
$GPRMC,071614.00,A,3206.37135,N,03512.22376,E,2.590,93.4,300316,,,A*6F
$GPGGA,071616.00,3206.37137,N,03512.22561,E,1,08,0.00,642.4,M,,,,*05
$GPRMC,071616.00,A,3206.37137,N,03512.22561,E,2.593,87.1,300316,,,A*6C
$GPGGA,071617.00,3206.37139,N,03512.22652,E,1,08,0.00,642.2,M,,,,*0F
$GPRMC,071617.00,A,3206.37139,N,03512.22652,E,2.594,87.8,300316,,,A*6E
$GPGGA,071619.00,3206.37148,N,03512.22817,E,1,08,0.00,641.7,M,,,,*0E
$GPRMC,071619.00,A,3206.37148,N,03512.22817,E,2.593,100.2,300316,,,A*5A
$GPGGA,071620.00,3206.37141,N,03512.22891,E,1,08,0.00,640.6,M,,,,*03
$GPRMC,071620.00,A,3206.37141,N,03512.22891,E,2.591,91.5,300316,,,A*6B
$GPGGA,071621.00,3206.37139,N,03512.22970,E,1,08,0.00,641.8,M,,,,*0C
$GPRMC,071621.00,A,3206.37139,N,03512.22970,E,2.590,100.9,300316,,,A*5F
$GPGGA,071623.00,3206.37121,N,03512.23125,E,1,08,0.00,641.3,M,,,,*05
$GPRMC,071623.00,A,3206.37121,N,03512.23125,E,2.587,98.6,300316,,,A*64
$GPGGA,071625.00,3206.37119,N,03512.23303,E,1,08,0.00,640.5,M,,,,*09
$GPRMC,071625.00,A,3206.37119,N,03512.23303,E,2.588,99.2,300316,,,A*65
$GPGGA,071627.00,3206.37128,N,03512.23509,E,1,08,0.00,640.2,M,,,,*02
$GPRMC,071627.00,A,3206.37128,N,03512.23509,E,2.594,93.9,300316,,,A*65
$GPGGA,071629.00,3206.37132,N,03512.23719,E,1,08,0.00,639.2,M,,,,*0A
$GPRMC,071629.00,A,3206.37132,N,03512.23719,E,2.601,112.9,300316,,,A*54
$GPGGA,071630.00,3206.37139,N,03512.23832,E,1,08,0.00,638.3,M,,,,*0F
$GPRMC,071630.00,A,3206.37139,N,03512.23832,E,2.605,106.4,300316,,,A*5D
$GPGGA,071632.00,3206.37165,N,03512.24050,E,1,08,0.00,638.3,M,,,,*0F
$GPRMC,071632.00,A,3206.37165,N,03512.24050,E,2.613,115.5,300316,,,A*59
$GPGGA,071633.00,3206.37180,N,03512.24155,E,1,08,0.00,638.4,M,,,,*06
$GPRMC,071633.00,A,3206.37180,N,03512.24155,E,2.616,115.3,300316,,,A*54
$GPGGA,071634.00,3206.37189,N,03512.24251,E,1,08,0.00,637.0,M,,,,*04
$GPRMC,071634.00,A,3206.37189,N,03512.24251,E,2.618,111.9,300316,,,A*5D
$GPGGA,071635.00,3206.37195,N,03512.24339,E,1,08,0.00,637.4,M,,,,*03
$GPRMC,071635.00,A,3206.37195,N,03512.24339,E,2.618,113.7,300316,,,A*52
$GPGGA,071637.00,3206.37164,N,03512.24483,E,1,08,0.00,637.4,M,,,,*09
$GPRMC,071637.00,A,3206.37164,N,03512.24483,E,2.613,121.7,300316,,,A*52
$GPGGA,071639.00,3206.37064,N,03512.24572,E,1,08,0.00,637.2,M,,,,*0F
$GPRMC,071639.00,A,3206.37064,N,03512.24572,E,2.599,114.9,300316,,,A*5B
$GPGGA,071641.00,3206.36958,N,03512.24680,E,1,08,0.00,637.0,M,,,,*0B
$GPRMC,071641.00,A,3206.36958,N,03512.24680,E,2.589,112.5,300316,,,A*56
$GPGGA,071642.00,3206.36955,N,03512.24720,E,1,08,0.00,637.0,M,,,,*0E
$GPRMC,071642.00,A,3206.36955,N,03512.24720,E,2.582,93.1,300316,,,A*64
$GPGGA,071643.00,3206.36929,N,03512.24803,E,1,08,0.00,637.0,M,,,,*0A
$GPRMC,071643.00,A,3206.36929,N,03512.24803,E,2.581,105.3,300316,,,A*5F
$GPGGA,071644.00,3206.37004,N,03512.24893,E,1,08,0.00,637.2,M,,,,*01
$GPRMC,071644.00,A,3206.37004,N,03512.24893,E,2.582,105.9,300316,,,A*5F
$GPGGA,071645.00,3206.37033,N,03512.24987,E,1,08,0.00,636.5,M,,,,*06
$GPRMC,071645.00,A,3206.37033,N,03512.24987,E,2.584,108.5,300316,,,A*59
$GPGGA,071646.00,3206.37064,N,03512.25070,E,1,08,0.00,636.2,M,,,,*00
$GPRMC,071646.00,A,3206.37064,N,03512.25070,E,2.584,103.8,300316,,,A*5E
$GPGGA,071647.00,3206.37081,N,03512.25157,E,1,08,0.00,636.2,M,,,,*0E
$GPRMC,071647.00,A,3206.37081,N,03512.25157,E,2.584,87.7,300316,,,A*62
$GPGGA,071649.00,3206.37097,N,03512.25340,E,1,08,0.00,635.9,M,,,,*0B
$GPRMC,071649.00,A,3206.37097,N,03512.25340,E,2.587,95.5,300316,,,A*6D
$GPGGA,071650.00,3206.37111,N,03512.25453,E,1,08,0.00,635.4,M,,,,*04
$GPRMC,071650.00,A,3206.37111,N,03512.25453,E,2.591,106.2,300316,,,A*54
$GPGGA,071651.00,3206.37117,N,03512.25557,E,1,08,0.00,638.4,M,,,,*0B
$GPRMC,071651.00,A,3206.37117,N,03512.25557,E,2.593,109.5,300316,,,A*5C
$GPGGA,071653.00,3206.37119,N,03512.25758,E,1,08,0.00,639.7,M,,,,*08
$GPRMC,071653.00,A,3206.37119,N,03512.25758,E,2.598,105.3,300316,,,A*5C
$GPGGA,071654.00,3206.37123,N,03512.25851,E,1,08,0.00,639.7,M,,,,*00
$GPRMC,071654.00,A,3206.37123,N,03512.25851,E,2.599,106.8,300316,,,A*5D
$GPGGA,071656.00,3206.37160,N,03512.26035,E,1,08,0.00,637.5,M,,,,*00
$GPRMC,071656.00,A,3206.37160,N,03512.26035,E,2.602,96.0,300316,,,A*60
$GPGGA,071657.00,3206.37199,N,03512.26114,E,1,08,0.00,635.6,M,,,,*04
$GPRMC,071657.00,A,3206.37199,N,03512.26114,E,2.601,92.6,300316,,,A*64
$GPGGA,071659.00,3206.37286,N,03512.26284,E,1,08,0.00,635.1,M,,,,*0A
$GPRMC,071659.00,A,3206.37286,N,03512.26284,E,2.602,92.4,300316,,,A*6C
$GPGGA,071701.00,3206.37312,N,03512.26480,E,1,08,0.00,632.8,M,,,,*06
$GPRMC,071701.00,A,3206.37312,N,03512.26480,E,2.606,93.7,300316,,,A*68
$GPGGA,071703.00,3206.37291,N,03512.26683,E,1,08,0.00,632.1,M,,,,*06
$GPRMC,071703.00,A,3206.37291,N,03512.26683,E,2.611,94.8,300316,,,A*6F
$GPGGA,071704.00,3206.37286,N,03512.26779,E,1,08,0.00,631.5,M,,,,*04
$GPRMC,071704.00,A,3206.37286,N,03512.26779,E,2.612,86.5,300316,,,A*67
$GPGGA,071706.00,3206.37291,N,03512.26964,E,1,08,0.00,630.2,M,,,,*04
$GPRMC,071706.00,A,3206.37291,N,03512.26964,E,2.614,93.7,300316,,,A*61
$GPGGA,071708.00,3206.37270,N,03512.27187,E,1,08,0.00,630.5,M,,,,*06
$GPRMC,071708.00,A,3206.37270,N,03512.27187,E,2.618,98.8,300316,,,A*6C
$GPGGA,071710.00,3206.37201,N,03512.27401,E,1,08,0.00,629.8,M,,,,*07
$GPRMC,071710.00,A,3206.37201,N,03512.27401,E,2.624,93.7,300316,,,A*63
$GPGGA,071711.00,3206.37159,N,03512.27494,E,1,08,0.00,630.6,M,,,,*02
$GPRMC,071711.00,A,3206.37159,N,03512.27494,E,2.623,93.7,300316,,,A*67
$GPGGA,071713.00,3206.37098,N,03512.27737,E,1,08,0.00,632.9,M,,,,*0B
$GPRMC,071713.00,A,3206.37098,N,03512.27737,E,2.631,94.8,300316,,,A*68
$GPGGA,071715.00,3206.37100,N,03512.27971,E,1,08,0.00,633.8,M,,,,*01
$GPRMC,071715.00,A,3206.37100,N,03512.27971,E,2.640,111.4,300316,,,A*54
$GPGGA,071717.00,3206.37093,N,03512.28178,E,1,08,0.00,633.6,M,,,,*08
$GPRMC,071717.00,A,3206.37093,N,03512.28178,E,2.647,96.6,300316,,,A*68
$GPGGA,071718.00,3206.37085,N,03512.28283,E,1,08,0.00,634.1,M,,,,*07
$GPRMC,071718.00,A,3206.37085,N,03512.28283,E,2.649,98.1,300316,,,A*60
$GPGGA,071719.00,3206.37071,N,03512.28384,E,1,08,0.00,634.4,M,,,,*0E
$GPRMC,071719.00,A,3206.37071,N,03512.28384,E,2.650,97.1,300316,,,A*6B
$GPGGA,071720.00,3206.37060,N,03512.28487,E,1,08,0.00,635.3,M,,,,*06
$GPRMC,071720.00,A,3206.37060,N,03512.28487,E,2.652,103.5,300316,,,A*5F
$GPGGA,071722.00,3206.37036,N,03512.28699,E,1,08,0.00,635.2,M,,,,*0B
$GPRMC,071722.00,A,3206.37036,N,03512.28699,E,2.656,93.6,300316,,,A*6C
$GPGGA,071724.00,3206.37031,N,03512.28904,E,1,08,0.00,640.9,M,,,,*08
$GPRMC,071724.00,A,3206.37031,N,03512.28904,E,2.661,91.9,300316,,,A*6F
$GPGGA,071725.00,3206.37038,N,03512.29002,E,1,08,0.00,640.7,M,,,,*00
$GPRMC,071725.00,A,3206.37038,N,03512.29002,E,2.662,89.4,300316,,,A*6E
$GPGGA,071726.00,3206.37060,N,03512.29098,E,1,08,0.00,640.1,M,,,,*0B
$GPRMC,071726.00,A,3206.37060,N,03512.29098,E,2.663,96.0,300316,,,A*68
$GPGGA,071728.00,3206.37109,N,03512.29299,E,1,08,0.00,636.4,M,,,,*0C
$GPRMC,071728.00,A,3206.37109,N,03512.29299,E,2.667,91.4,300316,,,A*6C
$GPGGA,071729.00,3206.37123,N,03512.29407,E,1,08,0.00,635.5,M,,,,*06
$GPRMC,071729.00,A,3206.37123,N,03512.29407,E,2.669,100.8,300316,,,A*5F
$GPGGA,071731.00,3206.37160,N,03512.29639,E,1,08,0.00,635.1,M,,,,*03
$GPRMC,071731.00,A,3206.37160,N,03512.29639,E,2.677,98.8,300316,,,A*61
$GPGGA,071732.00,3206.37167,N,03512.29750,E,1,08,0.00,634.4,M,,,,*0D
$GPRMC,071732.00,A,3206.37167,N,03512.29750,E,2.680,97.5,300316,,,A*61
$GPGGA,071733.00,3206.37171,N,03512.29855,E,1,08,0.00,633.7,M,,,,*05
$GPRMC,071733.00,A,3206.37171,N,03512.29855,E,2.682,96.5,300316,,,A*6E
$GPGGA,071735.00,3206.37172,N,03512.30056,E,1,08,0.00,632.5,M,,,,*00
$GPRMC,071735.00,A,3206.37172,N,03512.30056,E,2.685,98.2,300316,,,A*66
$GPGGA,071736.00,3206.37166,N,03512.30163,E,1,08,0.00,632.4,M,,,,*00
$GPRMC,071736.00,A,3206.37166,N,03512.30163,E,2.687,98.6,300316,,,A*61
$GPGGA,071738.00,3206.37147,N,03512.30386,E,1,08,0.00,632.3,M,,,,*03
$GPRMC,071738.00,A,3206.37147,N,03512.30386,E,2.692,110.7,300316,,,A*51
$GPGGA,071739.00,3206.37139,N,03512.30497,E,1,08,0.00,633.7,M,,,,*09
$GPRMC,071739.00,A,3206.37139,N,03512.30497,E,2.695,106.5,300316,,,A*5C
$GPGGA,071741.00,3206.37111,N,03512.30686,E,1,08,0.00,633.9,M,,,,*00
$GPRMC,071741.00,A,3206.37111,N,03512.30686,E,2.696,120.0,300316,,,A*59
$GPGGA,071743.00,3206.37055,N,03512.30853,E,1,08,0.00,633.3,M,,,,*0F
$GPRMC,071743.00,A,3206.37055,N,03512.30853,E,2.695,124.9,300316,,,A*52
$GPGGA,071744.00,3206.36987,N,03512.30941,E,1,08,0.00,633.7,M,,,,*09
$GPRMC,071744.00,A,3206.36987,N,03512.30941,E,2.694,139.0,300316,,,A*54
$GPGGA,071746.00,3206.36923,N,03512.31096,E,1,08,0.00,634.2,M,,,,*05
$GPRMC,071746.00,A,3206.36923,N,03512.31096,E,2.691,111.3,300316,,,A*56
$GPGGA,071748.00,3206.36881,N,03512.31231,E,1,08,0.00,632.8,M,,,,*01
$GPRMC,071748.00,A,3206.36881,N,03512.31231,E,2.686,129.7,300316,,,A*57
$GPGGA,071750.00,3206.36825,N,03512.31382,E,1,08,0.00,634.0,M,,,,*01
$GPRMC,071750.00,A,3206.36825,N,03512.31382,E,2.683,136.5,300316,,,A*50
$GPGGA,071752.00,3206.36772,N,03512.31532,E,1,08,0.00,635.3,M,,,,*01
$GPRMC,071752.00,A,3206.36772,N,03512.31532,E,2.680,128.4,300316,,,A*5F
$GPGGA,071753.00,3206.36754,N,03512.31613,E,1,08,0.00,638.0,M,,,,*0A
$GPRMC,071753.00,A,3206.36754,N,03512.31613,E,2.679,125.5,300316,,,A*50
$GPGGA,071754.00,3206.36739,N,03512.31706,E,1,08,0.00,641.3,M,,,,*0E
$GPRMC,071754.00,A,3206.36739,N,03512.31706,E,2.679,134.4,300316,,,A*58
$GPGGA,071755.00,3206.36718,N,03512.31805,E,1,08,0.00,639.3,M,,,,*0F
$GPRMC,071755.00,A,3206.36718,N,03512.31805,E,2.680,110.0,300316,,,A*52
$GPGGA,071757.00,3206.36695,N,03512.32012,E,1,08,0.00,638.0,M,,,,*06
$GPRMC,071757.00,A,3206.36695,N,03512.32012,E,2.684,121.0,300316,,,A*5F
$GPGGA,071759.00,3206.36660,N,03512.32220,E,1,08,0.00,638.7,M,,,,*06
$GPRMC,071759.00,A,3206.36660,N,03512.32220,E,2.687,113.6,300316,,,A*5C
$GPGGA,071800.00,3206.36644,N,03512.32321,E,1,08,0.00,637.6,M,,,,*0D
$GPRMC,071800.00,A,3206.36644,N,03512.32321,E,2.688,102.1,300316,,,A*51
$GPGGA,071802.00,3206.36610,N,03512.32499,E,1,08,0.00,635.2,M,,,,*0C
$GPRMC,071802.00,A,3206.36610,N,03512.32499,E,2.688,104.9,300316,,,A*58
$GPGGA,071803.00,3206.36587,N,03512.32578,E,1,08,0.00,634.9,M,,,,*04
$GPRMC,071803.00,A,3206.36587,N,03512.32578,E,2.687,111.6,300316,,,A*5E
$GPGGA,071805.00,3206.36541,N,03512.32738,E,1,08,0.00,635.7,M,,,,*01
$GPRMC,071805.00,A,3206.36541,N,03512.32738,E,2.686,117.1,300316,,,A*54
$GPGGA,071806.00,3206.36527,N,03512.32821,E,1,08,0.00,634.1,M,,,,*02
$GPRMC,071806.00,A,3206.36527,N,03512.32821,E,2.685,119.3,300316,,,A*5F
$GPGGA,071808.00,3206.36477,N,03512.32958,E,1,08,0.00,633.5,M,,,,*04
$GPRMC,071808.00,A,3206.36477,N,03512.32958,E,2.680,148.5,300316,,,A*5D
$GPGGA,071810.00,3206.36382,N,03512.33067,E,1,08,0.00,632.3,M,,,,*03
$GPRMC,071810.00,A,3206.36382,N,03512.33067,E,2.673,175.0,300316,,,A*5A
$GPGGA,071812.00,3206.36268,N,03512.33084,E,1,08,0.00,630.3,M,,,,*0B
$GPRMC,071812.00,A,3206.36268,N,03512.33084,E,2.656,182.4,300316,,,A*5B
$GPGGA,071814.00,3206.36145,N,03512.33077,E,1,08,0.00,632.0,M,,,,*0C
$GPRMC,071814.00,A,3206.36145,N,03512.33077,E,2.637,176.7,300316,,,A*52
$GPGGA,071816.00,3206.36025,N,03512.33068,E,1,08,0.00,630.7,M,,,,*02
$GPRMC,071816.00,A,3206.36025,N,03512.33068,E,2.618,169.6,300316,,,A*5B
$GPGGA,071818.00,3206.35880,N,03512.33125,E,1,08,0.00,631.5,M,,,,*03
$GPRMC,071818.00,A,3206.35880,N,03512.33125,E,2.606,177.0,300316,,,A*5F
$GPGGA,071819.00,3206.35802,N,03512.33154,E,1,08,0.00,632.4,M,,,,*0C
$GPRMC,071819.00,A,3206.35802,N,03512.33154,E,2.601,178.3,300316,,,A*59
$GPGGA,071821.00,3206.35665,N,03512.33214,E,1,08,0.00,632.4,M,,,,*0F
$GPRMC,071821.00,A,3206.35665,N,03512.33214,E,2.589,179.4,300316,,,A*5F
$GPGGA,071823.00,3206.35546,N,03512.33242,E,1,08,0.00,633.2,M,,,,*0B
$GPRMC,071823.00,A,3206.35546,N,03512.33242,E,2.576,172.6,300316,,,A*55
$GPGGA,071824.00,3206.35485,N,03512.33247,E,1,08,0.00,632.6,M,,,,*02
$GPRMC,071824.00,A,3206.35485,N,03512.33247,E,2.568,174.5,300316,,,A*53
$GPGGA,071826.00,3206.35309,N,03512.33253,E,1,08,0.00,631.8,M,,,,*0B
$GPRMC,071826.00,A,3206.35309,N,03512.33253,E,2.552,179.8,300316,,,A*5E
$GPGGA,071828.00,3206.35092,N,03512.33299,E,1,08,0.00,632.7,M,,,,*0E
$GPRMC,071828.00,A,3206.35092,N,03512.33299,E,2.540,196.8,300316,,,A*55
$GPGGA,071830.00,3206.34919,N,03512.33313,E,1,08,0.00,631.8,M,,,,*03
$GPRMC,071830.00,A,3206.34919,N,03512.33313,E,2.526,201.2,300316,,,A*53
$GPGGA,071831.00,3206.34847,N,03512.33296,E,1,08,0.00,632.1,M,,,,*0E
$GPRMC,071831.00,A,3206.34847,N,03512.33296,E,2.517,195.4,300316,,,A*5E
$GPGGA,071833.00,3206.34713,N,03512.33266,E,1,08,0.00,631.0,M,,,,*0F
$GPRMC,071833.00,A,3206.34713,N,03512.33266,E,2.499,193.8,300316,,,A*50
$GPGGA,071834.00,3206.34624,N,03512.33244,E,1,08,0.00,634.9,M,,,,*01
$GPRMC,071834.00,A,3206.34624,N,03512.33244,E,2.489,192.6,300316,,,A*5C
$GPGGA,071835.00,3206.34555,N,03512.33220,E,1,08,0.00,635.0,M,,,,*0F
$GPRMC,071835.00,A,3206.34555,N,03512.33220,E,2.479,193.2,300316,,,A*50
$GPGGA,071837.00,3206.34447,N,03512.33159,E,1,08,0.00,632.2,M,,,,*07
$GPRMC,071837.00,A,3206.34447,N,03512.33159,E,2.458,161.9,300316,,,A*58
$GPGGA,071839.00,3206.34324,N,03512.33131,E,1,08,0.00,633.9,M,,,,*0F
$GPRMC,071839.00,A,3206.34324,N,03512.33131,E,2.441,176.8,300316,,,A*55
$GPGGA,071841.00,3206.34199,N,03512.33097,E,1,08,0.00,635.3,M,,,,*05
$GPRMC,071841.00,A,3206.34199,N,03512.33097,E,2.424,181.6,300316,,,A*56
$GPGGA,071843.00,3206.34049,N,03512.33138,E,1,08,0.00,636.4,M,,,,*0B
$GPRMC,071843.00,A,3206.34049,N,03512.33138,E,2.414,162.4,300316,,,A*50
$GPGGA,071844.00,3206.33965,N,03512.33196,E,1,08,0.00,637.3,M,,,,*0E
$GPRMC,071844.00,A,3206.33965,N,03512.33196,E,2.413,164.2,300316,,,A*54
$GPGGA,071845.00,3206.33889,N,03512.33269,E,1,08,0.00,636.8,M,,,,*05
$GPRMC,071845.00,A,3206.33889,N,03512.33269,E,2.413,158.2,300316,,,A*5A
$GPGGA,071846.00,3206.33806,N,03512.33352,E,1,08,0.00,636.9,M,,,,*09
$GPRMC,071846.00,A,3206.33806,N,03512.33352,E,2.414,141.4,300316,,,A*5E
$GPGGA,071847.00,3206.33724,N,03512.33445,E,1,08,0.00,636.3,M,,,,*0C
$GPRMC,071847.00,A,3206.33724,N,03512.33445,E,2.416,140.5,300316,,,A*53
$GPGGA,071849.00,3206.33594,N,03512.33629,E,1,08,0.00,638.4,M,,,,*0A
$GPRMC,071849.00,A,3206.33594,N,03512.33629,E,2.420,128.5,300316,,,A*57
$GPGGA,071851.00,3206.33505,N,03512.33836,E,1,08,0.00,639.0,M,,,,*0E
$GPRMC,071851.00,A,3206.33505,N,03512.33836,E,2.426,90.8,300316,,,A*6F
$GPGGA,071853.00,3206.33466,N,03512.34046,E,1,08,0.00,637.9,M,,,,*07
$GPRMC,071853.00,A,3206.33466,N,03512.34046,E,2.431,97.4,300316,,,A*6C
$GPGGA,071854.00,3206.33454,N,03512.34145,E,1,08,0.00,637.5,M,,,,*0F
$GPRMC,071854.00,A,3206.33454,N,03512.34145,E,2.433,93.8,300316,,,A*62
$GPGGA,071856.00,3206.33433,N,03512.34332,E,1,08,0.00,636.2,M,,,,*08
$GPRMC,071856.00,A,3206.33433,N,03512.34332,E,2.435,88.4,300316,,,A*63
$GPGGA,071858.00,3206.33398,N,03512.34527,E,1,08,0.00,635.4,M,,,,*07
$GPRMC,071858.00,A,3206.33398,N,03512.34527,E,2.439,95.9,300316,,,A*64
$GPGGA,071900.00,3206.33361,N,03512.34706,E,1,08,0.00,636.0,M,,,,*0B
$GPRMC,071900.00,A,3206.33361,N,03512.34706,E,2.441,81.8,300316,,,A*64
$GPGGA,071902.00,3206.33335,N,03512.34900,E,1,08,0.00,637.0,M,,,,*01
$GPRMC,071902.00,A,3206.33335,N,03512.34900,E,2.444,93.6,300316,,,A*67
$GPGGA,071904.00,3206.33311,N,03512.35095,E,1,08,0.00,638.2,M,,,,*08
$GPRMC,071904.00,A,3206.33311,N,03512.35095,E,2.447,130.1,300316,,,A*5F
$GPGGA,071905.00,3206.33284,N,03512.35176,E,1,08,0.00,638.1,M,,,,*0B
$GPRMC,071905.00,A,3206.33284,N,03512.35176,E,2.448,123.0,300316,,,A*53
$GPGGA,071906.00,3206.33249,N,03512.35263,E,1,08,0.00,637.3,M,,,,*03
$GPRMC,071906.00,A,3206.33249,N,03512.35263,E,2.449,118.9,300316,,,A*56
$GPGGA,071908.00,3206.33172,N,03512.35443,E,1,08,0.00,635.9,M,,,,*0A
$GPRMC,071908.00,A,3206.33172,N,03512.35443,E,2.451,102.7,300316,,,A*5B
$GPGGA,071909.00,3206.33140,N,03512.35534,E,1,08,0.00,636.5,M,,,,*04
$GPRMC,071909.00,A,3206.33140,N,03512.35534,E,2.453,110.5,300316,,,A*59
$GPGGA,071910.00,3206.33104,N,03512.35624,E,1,08,0.00,635.5,M,,,,*0D
$GPRMC,071910.00,A,3206.33104,N,03512.35624,E,2.454,105.8,300316,,,A*5D
$GPGGA,071911.00,3206.33072,N,03512.35705,E,1,08,0.00,636.4,M,,,,*0C
$GPRMC,071911.00,A,3206.33072,N,03512.35705,E,2.454,116.3,300316,,,A*57
$GPGGA,071913.00,3206.33002,N,03512.35902,E,1,08,0.00,635.8,M,,,,*0F
$GPRMC,071913.00,A,3206.33002,N,03512.35902,E,2.458,124.0,300316,,,A*55
$GPGGA,071914.00,3206.32957,N,03512.36006,E,1,08,0.00,635.4,M,,,,*02
$GPRMC,071914.00,A,3206.32957,N,03512.36006,E,2.461,133.0,300316,,,A*58
$GPGGA,071916.00,3206.32918,N,03512.36200,E,1,08,0.00,635.2,M,,,,*09
$GPRMC,071916.00,A,3206.32918,N,03512.36200,E,2.464,134.6,300316,,,A*51
$GPGGA,071918.00,3206.32878,N,03512.36334,E,1,08,0.00,635.2,M,,,,*06
$GPRMC,071918.00,A,3206.32878,N,03512.36334,E,2.462,143.0,300316,,,A*5E
$GPGGA,071920.00,3206.32788,N,03512.36479,E,1,08,0.00,636.0,M,,,,*02
$GPRMC,071920.00,A,3206.32788,N,03512.36479,E,2.462,150.1,300316,,,A*58
$GPGGA,071921.00,3206.32714,N,03512.36549,E,1,08,0.00,635.5,M,,,,*02
$GPRMC,071921.00,A,3206.32714,N,03512.36549,E,2.462,153.0,300316,,,A*5C
$GPGGA,071923.00,3206.32572,N,03512.36658,E,1,08,0.00,636.4,M,,,,*03
$GPRMC,071923.00,A,3206.32572,N,03512.36658,E,2.459,166.5,300316,,,A*54
$GPGGA,071924.00,3206.32496,N,03512.36727,E,1,08,0.00,637.0,M,,,,*03
$GPRMC,071924.00,A,3206.32496,N,03512.36727,E,2.459,168.9,300316,,,A*53
$GPGGA,071926.00,3206.32356,N,03512.36828,E,1,08,0.00,636.6,M,,,,*0D
$GPRMC,071926.00,A,3206.32356,N,03512.36828,E,2.456,159.5,300316,,,A*5B
$GPGGA,071928.00,3206.32212,N,03512.36910,E,1,08,0.00,637.0,M,,,,*0F
$GPRMC,071928.00,A,3206.32212,N,03512.36910,E,2.451,169.7,300316,,,A*58
$GPGGA,071930.00,3206.32071,N,03512.36955,E,1,08,0.00,635.9,M,,,,*0B
$GPRMC,071930.00,A,3206.32071,N,03512.36955,E,2.444,179.0,300316,,,A*55
$GPGGA,071932.00,3206.31921,N,03512.37012,E,1,08,0.00,638.6,M,,,,*0F
$GPRMC,071932.00,A,3206.31921,N,03512.37012,E,2.438,172.3,300316,,,A*50
$GPGGA,071934.00,3206.31772,N,03512.37082,E,1,08,0.00,638.3,M,,,,*0D
$GPRMC,071934.00,A,3206.31772,N,03512.37082,E,2.433,177.7,300316,,,A*5D
$GPGGA,071935.00,3206.31706,N,03512.37095,E,1,08,0.00,638.9,M,,,,*03
$GPRMC,071935.00,A,3206.31706,N,03512.37095,E,2.428,177.9,300316,,,A*5D
$GPGGA,071936.00,3206.31637,N,03512.37085,E,1,08,0.00,639.8,M,,,,*02
$GPRMC,071936.00,A,3206.31637,N,03512.37085,E,2.422,174.2,300316,,,A*5E
$GPGGA,071937.00,3206.31567,N,03512.37067,E,1,08,0.00,639.3,M,,,,*02
$GPRMC,071937.00,A,3206.31567,N,03512.37067,E,2.414,165.3,300316,,,A*51
$GPGGA,071939.00,3206.31411,N,03512.37056,E,1,08,0.00,637.6,M,,,,*05
$GPRMC,071939.00,A,3206.31411,N,03512.37056,E,2.403,176.9,300316,,,A*53
$GPGGA,071941.00,3206.31261,N,03512.37076,E,1,08,0.00,637.7,M,,,,*08
$GPRMC,071941.00,A,3206.31261,N,03512.37076,E,2.394,171.9,300316,,,A*51
$GPGGA,071943.00,3206.31107,N,03512.37085,E,1,08,0.00,636.1,M,,,,*02
$GPRMC,071943.00,A,3206.31107,N,03512.37085,E,2.385,172.6,300316,,,A*50
$GPGGA,071945.00,3206.30953,N,03512.37144,E,1,08,0.00,638.3,M,,,,*0C
$GPRMC,071945.00,A,3206.30953,N,03512.37144,E,2.380,172.0,300316,,,A*51
$GPGGA,071947.00,3206.30794,N,03512.37276,E,1,08,0.00,642.0,M,,,,*07
$GPRMC,071947.00,A,3206.30794,N,03512.37276,E,2.382,176.1,300316,,,A*53
$GPGGA,071948.00,3206.30715,N,03512.37344,E,1,08,0.00,642.7,M,,,,*06
$GPRMC,071948.00,A,3206.30715,N,03512.37344,E,2.381,181.7,300316,,,A*58
$GPGGA,071950.00,3206.30541,N,03512.37469,E,1,08,0.00,647.7,M,,,,*01
$GPRMC,071950.00,A,3206.30541,N,03512.37469,E,2.382,168.2,300316,,,A*5B
$GPGGA,071951.00,3206.30447,N,03512.37536,E,1,08,0.00,647.7,M,,,,*0C
$GPRMC,071951.00,A,3206.30447,N,03512.37536,E,2.383,173.1,300316,,,A*5E
$GPGGA,071953.00,3206.30260,N,03512.37645,E,1,08,0.00,648.7,M,,,,*05
$GPRMC,071953.00,A,3206.30260,N,03512.37645,E,2.384,179.0,300316,,,A*54
$GPGGA,071955.00,3206.30121,N,03512.37695,E,1,08,0.00,652.2,M,,,,*06
$GPRMC,071955.00,A,3206.30121,N,03512.37695,E,2.379,177.9,300316,,,A*5C
$GPGGA,071956.00,3206.30057,N,03512.37756,E,1,08,0.00,654.2,M,,,,*0D
$GPRMC,071956.00,A,3206.30057,N,03512.37756,E,2.379,187.5,300316,,,A*52
$GPGGA,071958.00,3206.29938,N,03512.37863,E,1,08,0.00,658.9,M,,,,*05
$GPRMC,071958.00,A,3206.29938,N,03512.37863,E,2.377,176.2,300316,,,A*5A
$GPGGA,071959.00,3206.29878,N,03512.37950,E,1,08,0.00,661.5,M,,,,*06
$GPRMC,071959.00,A,3206.29878,N,03512.37950,E,2.379,182.8,300316,,,A*50
$GPGGA,072000.00,3206.29816,N,03512.38014,E,1,08,0.00,661.5,M,,,,*0E
$GPRMC,072000.00,A,3206.29816,N,03512.38014,E,2.379,183.2,300316,,,A*53
$GPGGA,072002.00,3206.29679,N,03512.38068,E,1,08,0.00,663.9,M,,,,*0E
$GPRMC,072002.00,A,3206.29679,N,03512.38068,E,2.374,176.2,300316,,,A*5A
$GPGGA,072003.00,3206.29609,N,03512.38062,E,1,08,0.00,666.5,M,,,,*0B
$GPRMC,072003.00,A,3206.29609,N,03512.38062,E,2.369,177.8,300316,,,A*51
$GPGGA,072004.00,3206.29542,N,03512.38068,E,1,08,0.00,665.8,M,,,,*04
$GPRMC,072004.00,A,3206.29542,N,03512.38068,E,2.365,174.0,300316,,,A*57
$GPGGA,072006.00,3206.29403,N,03512.38043,E,1,08,0.00,664.0,M,,,,*02
$GPRMC,072006.00,A,3206.29403,N,03512.38043,E,2.355,180.4,300316,,,A*54
$GPGGA,072008.00,3206.29276,N,03512.37996,E,1,08,0.00,663.7,M,,,,*06
$GPRMC,072008.00,A,3206.29276,N,03512.37996,E,2.343,149.5,300316,,,A*53
$GPGGA,072009.00,3206.29214,N,03512.37999,E,1,08,0.00,662.4,M,,,,*0E
$GPRMC,072009.00,A,3206.29214,N,03512.37999,E,2.339,152.8,300316,,,A*53
$GPGGA,072011.00,3206.29079,N,03512.38034,E,1,08,0.00,661.0,M,,,,*08
$GPRMC,072011.00,A,3206.29079,N,03512.38034,E,2.333,159.7,300316,,,A*5C
$GPGGA,072012.00,3206.29004,N,03512.38047,E,1,08,0.00,660.6,M,,,,*02
$GPRMC,072012.00,A,3206.29004,N,03512.38047,E,2.329,164.1,300316,,,A*52
$GPGGA,072013.00,3206.28932,N,03512.38047,E,1,08,0.00,658.8,M,,,,*0B
$GPRMC,072013.00,A,3206.28932,N,03512.38047,E,2.325,170.4,300316,,,A*52
$GPGGA,072014.00,3206.28855,N,03512.38054,E,1,08,0.00,657.6,M,,,,*0F
$GPRMC,072014.00,A,3206.28855,N,03512.38054,E,2.322,165.4,300316,,,A*54
$GPGGA,072015.00,3206.28772,N,03512.38062,E,1,08,0.00,656.8,M,,,,*0E
$GPRMC,072015.00,A,3206.28772,N,03512.38062,E,2.319,171.1,300316,,,A*52
$GPGGA,072017.00,3206.28599,N,03512.38110,E,1,08,0.00,654.8,M,,,,*0D
$GPRMC,072017.00,A,3206.28599,N,03512.38110,E,2.316,153.5,300316,,,A*58
$GPGGA,072018.00,3206.28514,N,03512.38141,E,1,08,0.00,654.4,M,,,,*0F
$GPRMC,072018.00,A,3206.28514,N,03512.38141,E,2.314,150.6,300316,,,A*54
$GPGGA,072019.00,3206.28429,N,03512.38162,E,1,08,0.00,652.0,M,,,,*02
$GPRMC,072019.00,A,3206.28429,N,03512.38162,E,2.312,156.9,300316,,,A*54
$GPGGA,072020.00,3206.28348,N,03512.38207,E,1,08,0.00,650.4,M,,,,*0E
$GPRMC,072020.00,A,3206.28348,N,03512.38207,E,2.311,143.7,300316,,,A*57
$GPGGA,072022.00,3206.28206,N,03512.38332,E,1,08,0.00,648.5,M,,,,*08
$GPRMC,072022.00,A,3206.28206,N,03512.38332,E,2.312,125.9,300316,,,A*54
$GPGGA,072023.00,3206.28139,N,03512.38407,E,1,08,0.00,648.2,M,,,,*00
$GPRMC,072023.00,A,3206.28139,N,03512.38407,E,2.313,115.7,300316,,,A*57
$GPGGA,072025.00,3206.28039,N,03512.38578,E,1,08,0.00,646.7,M,,,,*05
$GPRMC,072025.00,A,3206.28039,N,03512.38578,E,2.316,133.4,300316,,,A*5B
$GPGGA,072027.00,3206.27928,N,03512.38730,E,1,08,0.00,646.1,M,,,,*09
$GPRMC,072027.00,A,3206.27928,N,03512.38730,E,2.319,145.2,300316,,,A*59
$GPGGA,072029.00,3206.27790,N,03512.38826,E,1,08,0.00,645.9,M,,,,*09
$GPRMC,072029.00,A,3206.27790,N,03512.38826,E,2.319,174.9,300316,,,A*5B
$GPGGA,072030.00,3206.27707,N,03512.38869,E,1,08,0.00,644.9,M,,,,*05
$GPRMC,072030.00,A,3206.27707,N,03512.38869,E,2.317,177.9,300316,,,A*5B
$GPGGA,072032.00,3206.27564,N,03512.38966,E,1,08,0.00,642.5,M,,,,*04
$GPRMC,072032.00,A,3206.27564,N,03512.38966,E,2.318,175.9,300316,,,A*5D
$GPGGA,072033.00,3206.27502,N,03512.39021,E,1,08,0.00,643.1,M,,,,*0B
$GPRMC,072033.00,A,3206.27502,N,03512.39021,E,2.318,181.9,300316,,,A*5C
$GPGGA,072034.00,3206.27422,N,03512.39031,E,1,08,0.00,643.2,M,,,,*0D
$GPRMC,072034.00,A,3206.27422,N,03512.39031,E,2.314,185.4,300316,,,A*5C
$GPGGA,072036.00,3206.27265,N,03512.39029,E,1,08,0.00,642.0,M,,,,*00
$GPRMC,072036.00,A,3206.27265,N,03512.39029,E,2.308,186.5,300316,,,A*5D
$GPGGA,072037.00,3206.27194,N,03512.39044,E,1,08,0.00,641.6,M,,,,*02
$GPRMC,072037.00,A,3206.27194,N,03512.39044,E,2.305,185.7,300316,,,A*56
